1116,,,N*4D
$GPGGA,201152.246,,,,,0,00,,,M,0.0,M,,0000*53
$GPGSA,M,1,,,,,,,,,,,,,,,*12
$GPGSV,3,1,12,13,00,000,45,15,42,056,45,18,77,323,40,20,32,086,42*7F
$GPGSV,3,2,12,21,67,164,44,24,33,115,42,29,00,000,20,30,00,000,16*72
$GPGSV,3,3,12,32,18,219,28,05,77,344,,10,44,283,,03,21,297,*70
$GPRMC,201152.246,V,,,,,,,101116,,,N*4E
$GPGGA,201153.250,,,,,0,00,,,M,0.0,M,,0000*55
$GPGSA,M,1,,,,,,,,,,,,,,,*12
$GPRMC,201153.250,V,,,,,,,101116,,,N*48
$GPGGA,201154.250,,,,,0,00,,,M,0.0,M,,0000*52
$GPGSA,M,1,,,,,,,,,,,,,,,*12
$GPRMC,201154.250,V,,,,,,,101116,,,N*4F
$GPGGA,201155.246,,,,,0,00,,,M,0.0,M,,0000*54
$GPGSA,M,1,,,,,,,,,,,,,,,*12
$GPRMC,201155.246,V,,,,,,,101116,,,N*49
$GPGGA,201156.246,,,,,0,00,,,M,0.0,M,,0000*57
$GPGSA,M,1,,,,,,,,,,,,,,,*12
$GPRMC,201156.246,V,,,,,,,101116,,,N*4A
$GPGGA,201157.246,,,,,0,00,,,M,0.0,M,,0000*56
$GPGSA,M,1,,,,,,,,,,,,,,,*12
$GPGSV,3,1,12,13,00,000,45,15,42,056,45,18,77,323,43,20,32,086,42*7C
$GPGSV,3,2,12,21,67,164,48,24,33,115,43,29,00,000,26,30,00,000,16*79
$GPGSV,3,3,12,32,18,219,31,05,77,344,,10,44,283,,03,21,297,*78
$GPRMC,201157.246,V,,,,,,,101116,,,N*4B
$GPGGA,201158.250,,,,,0,00,,,M,0.0,M,,0000*5E
$GPGSA,M,1,,,,,,,,,,,,,,,*12
$GPRMC,201158.250,V,,,,,,,101116,,,N*43
$GPGGA,201159.246,,,,,0,00,,,M,0.0,M,,0000*58
$GPGSA,M,1,,,,,,,,,,,,,,,*12
$GPRMC,201159.246,V,,,,,,,101116,,,N*45
$GPGGA,201200.246,,,,,0,00,,,M,0.0,M,,0000*57
$GPGSA,M,1,,,,,,,,,,,,,,,*12
$GPRMC,201200.246,V,,,,,,,101116,,,N*4A
$GPGGA,201201.250,,,,,0,06,1.8,,M,0.0,M,,0000*70
$GPGSA,M,1,,,,,,,,,,,,,,,*12
$GPRMC,201201.250,V,,,,,,,101116,,,N*4C
$GPGGA,201202.250,,,,,0,06,1.8,,M,0.0,M,,0000*73
$GPGSA,M,1,,,,,,,,,,,,,,,*12
$GPGSV,3,1,12,21,78,226,48,24,49,116,43,15,43,045,45,20,42,081,42*7C
$GPGSV,3,2,12,32,18,237,30,13,12,045,44,18,59,326,43,29,05,189,26*79
$GPGSV,3,3,12,30,00,000,17,51,41,219,,05,60,334,,10,29,298,*7A
$GPRMC,201202.250,V,,,,,,,101116,,,N*4F
$GPGGA,201203.250,,,,,0,06,1.8,,M,0.0,M,,0000*72
$GPGSA,M,1,,,,,,,,,,,,,,,*12
$GPRMC,201203.250,V,,,,,,,101116,,,N*4E
$GPGGA,201204.000,,,,,0,06,1.8,,M,0.0,M,,0000*72
$GPGSA,M,1,,,,,,,,,,,,,,,*12
$GPRMC,201204.000,V,,,,,,,101116,,,N*4E
$GPGGA,201205.000,,,,,0,06,1.8,,M,0.0,M,,0000*73
$GPGSA,M,1,,,,,,,,,,,,,,,*12
$GPRMC,201205.000,V,,,,,,,101116,,,N*4F
$GPGGA,201206.000,3452.1778,N,08221.8409,W,1,06,1.8,312.0,M,-32.1,M,,0000*6E
$GPGSA,M,3,21,24,15,20,32,13,,,,,,,2.5,1.8,1.8*39
$GPRMC,201206.000,A,3452.1778,N,08221.8409,W,0.06,284.45,101116,,,A*71
$GPGGA,201207.000,3452.1777,N,08221.8408,W,1,06,1.8,311.9,M,-32.1,M,,0000*6B
$GPGSA,M,3,21,24,15,20,32,13,,,,,,,2.5,1.8,1.8*39
$GPGSV,3,1,12,21,78,226,48,24,49,116,43,15,43,045,45,20,42,081,42*7C
$GPGSV,3,2,12,32,18,237,30,13,12,045,44,18,59,326,43,29,05,189,26*79
$GPGSV,3,3,12,30,00,000,17,51,41,219,40,05,60,334,,10,29,298,*7E
$GPRMC,201207.000,A,3452.1777,N,08221.8408,W,0.06,284.45,101116,,,A*7E
$GPGGA,201208.000,3452.1777,N,08221.8408,W,1,06,1.8,311.9,M,-32.1,M,,0000*64
$GPGSA,M,3,21,24,15,20,32,13,,,,,,,2.5,1.8,1.8*39
$GPRMC,201208.000,A,3452.1777,N,08221.8408,W,0.06,284.45,101116,,,A*71
$GPGGA,201209.000,3452.1777,N,08221.8408,W,1,06,1.8,311.8,M,-32.1,M,,0000*64
$GPGSA,M,3,21,24,15,20,32,13,,,,,,,2.5,1.8,1.8*39
$GPRMC,201209.000,A,3452.1777,N,08221.8408,W,0.00,284.45,101116,,,A*76
$GPGGA,201210.000,3452.1777,N,08221.8408,W,1,06,1.8,311.8,M,-32.1,M,,0000*6C
$GPGSA,M,3,21,24,15,20,32,13,,,,,,,2.5,1.8,1.8*39
$GPRMC,201210.000,A,3452.1777,N,08221.8408,W,0.00,284.45,101116,,,A*7E
$GPGGA,201211.000,3452.1777,N,08221.8408,W,1,06,1.8,311.8,M,-32.1,M,,0000*6D
$GPGSA,M,3,21,24,15,20,32,13,,,,,,,2.5,1.8,1.8*39
$GPRMC,201211.000,A,3452.1777,N,08221.8408,W,0.00,284.45,101116,,,A*7F
$GPGGA,201212.000,3452.1777,N,08221.8408,W,1,06,1.8,311.8,M,-32.1,M,,0000*6E
$GPGSA,M,3,21,24,15,20,32,13,,,,,,,2.5,1.8,1.8*39
$GPGSV,3,1,12,21,78,226,48,24,49,116,44,15,43,045,45,20,42,081,42*7B
$GPGSV,3,2,12,32,18,237,30,13,12,045,44,18,59,326,44,29,05,189,26*7E
$GPGSV,3,3,12,30,00,000,16,51,41,219,40,05,60,334,,10,29,298,*7F
$GPRMC,201212.000,A,3452.1777,N,08221.8408,W,0.00,284.45,101116,,,A*7C
$GPGGA,201213.000,3452.1777,N,08221.8408,W,1,06,1.8,311.8,M,-32.1,M,,0000*6F
$GPGSA,M,3,21,24,15,20,32,13,,,,,,,2.5,1.8,1.8*39
$GPRMC,201213.000,A,3452.1777,N,08221.8408,W,0.00,284.45,101116,,,A*7D
$GPGGA,201214.000,3452.1777,N,08221.8408,W,1,06,1.8,311.8,M,-32.1,M,,0000*68
$GPGSA,M,3,21,24,15,20,32,13,,,,,,,2.5,1.8,1.8*39
$GPRMC,201214.000,A,3452.1777,N,08221.8408,W,0.00,284.45,101116,,,A*7A
$GPGGA,201215.000,3452.1777,N,08221.8408,W,1,06,1.8,311.8,M,-32.1,M,,0000*69
$GPGSA,M,3,21,24,15,20,32,13,,,,,,,2.5,1.8,1.8*39
$GPRMC,201215.000,A,3452.1777,N,08221.8408,W,0.00,284.45,101116,,,A*7B
$GPGGA,201216.000,3452.1777,N,08221.8408,W,1,06,1.8,311.8,M,-32.1,M,,0000*6A
$GPGSA,M,3,21,24,15,20,32,13,,,,,,,2.5,1.8,1.8*39
$GPRMC,201216.000,A,3452.1777,N,08221.8408,W,0.00,284.45,101116,,,A*78
$GPGGA,201217.000,3452.1777,N,08221.8408,W,1,06,1.8,311.8,M,-32.1,M,,0000*6B
$GPGSA,M,3,21,24,15,20,32,13,,,,,,,2.5,1.8,1.8*39
$GPGSV,3,1,12,21,78,225,48,24,49,116,44,15,42,045,45,20,42,081,41*7A
$GPGSV,3,2,12,32,18,237,30,13,12,045,44,18,59,326,44,29,05,189,25*7D
$GPGSV,3,3,12,30,00,000,17,51,41,219,40,05,60,334,,10,29,298,*7E
$GPRMC,201217.000,A,3452.1777,N,08221.8408,W,0.00,284.45,101116,,,A*79
$GPGGA,201218.000,3452.1777,N,08221.8408,W,1,06,1.8,311.8,M,-32.1,M,,0000*64
$GPGSA,M,3,21,24,15,20,32,13,,,,,,,2.5,1.8,1.8*39
$GPRMC,201218.000,A,3452.1777,N,08221.8408,W,0.00,284.45,101116,,,A*76
$GPGGA,201219.000,3452.1778,N,08221.8406,W,1,06,1.8,312.0,M,-32.1,M,,0000*6F
$GPGSA,M,3,21,24,15,20,32,13,,,,,,,2.5,1.8,1.8*39
$GPRMC,201219.000,A,3452.1778,N,08221.8406,W,0.07,284.45,101116,,,A*71
$GPGGA,201220.000,3452.1778,N,08221.8406,W,1,06,1.8,312.0,M,-32.1,M,,0000*65
$GPGSA,M,3,21,24,15,20,32,13,,,,,,,2.5,1.8,1.8*39
$GPRMC,201220.000,A,3452.1778,N,08221.8406,W,0.00,284.45,101116,,,A*7C
$GPGGA,201221.000,3452.1778,N,08221.8406,W,1,06,1.8,312.0,M,-32.1,M,,0000*64